Name,Terminal Name,ID,Latitude,Longitude
"River Street , Clerkenwell",001023,1,51.52916347,-0.109970527
"Phillimore Gardens, Kensington",001018,2,51.49960695,-0.197574246
"Christopher Street, Liverpool Street",001012,3,51.52128377,-0.084605692
"St. Chad's Street, King's Cross",001013,4,51.53005939,-0.120973687
"Sedding Street, Sloane Square",003420,5,51.49313,-0.156876
"Broadcasting House, Marylebone",003424,6,51.51811784,-0.144228881
"Charlbert Street, St. John's Wood",003422,7,51.53430039,-0.1680743
"Maida Vale, Maida Vale",003423,8,51.529857,-0.18348604
"New Globe Walk, Bankside",001015,9,51.5073853,-0.096440751
"Park Street, Bankside",001024,10,51.50597426,-0.092754157
"Brunswick Square, Bloomsbury",001022,11,51.52395143,-0.122502346
"Malet Street, Bloomsbury",000980,12,51.52168078,-0.130431727
"Scala Street, Fitzrovia",000970,13,51.51991453,-0.136039674
"Argyle Street, Kings Cross",001011,14,51.529416,-0.12394439999999918
"Great Russell Street, Bloomsbury",000988,15,51.51772703,-0.127854211
"Cartwright Gardens , Bloomsbury",001010,16,51.52635795,-0.125979294
"Hatton Wall, Holborn",001008,17,51.5216612,-0.109006325
"Drury Lane, Covent Garden",001007,18,51.51477076,-0.12221963
"Taviton Street, Bloomsbury",001009,19,51.52505093,-0.131161087
"Drummond Street , Euston",000993,20,51.527326,-0.13605286
"Lansdowne Drive, Hackney Central",003426,21,51.539834,-0.062806212
"Northington Street , Holborn",003425,22,51.5222641,-0.114079481
"Red Lion Square, Holborn",003421,23,51.51943538,-0.119123345
"British Museum, Bloomsbury",000981,24,51.51908011,-0.124678402
"Doric Way , Somers Town",001004,25,51.5288338,-0.132250369
"Ampton Street , Clerkenwell",001019,26,51.52728093,-0.11829517
"Bouverie Street, Temple",001021,27,51.51382102,-0.107927706
"Bolsover Street, Fitzrovia",001025,28,51.52351808,-0.143613641
"Hereford Road, Bayswater",001016,29,51.513735,-0.193487
"Windsor Terrace, Hoxton",001029,30,51.52915444,-0.093421615
"Fanshaw Street, Hoxton",003427,31,51.52953709,-0.083353323
"Leonard Circus , Shoreditch",001020,32,51.52469624,-0.084439283
"Central House, Aldgate",003430,33,51.515231,-0.07015
"Pancras Road, King's Cross",003428,34,51.5341235,-0.129386874
"De Vere Gardens, Kensington",003446,36,51.50173726,-0.184980612
"Penywern Road, Earl's Court",003444,37,51.49159394,-0.192369256
"Abingdon Villas, Kensington",003442,38,51.4973875,-0.197245586
"Shoreditch High Street, Shoreditch",003445,39,51.5263778,-0.078130921
"Commercial Street, Shoreditch",001083,40,51.52127071,-0.0755789
"Pindar Street, Liverpool Street",001084,41,51.520955,-0.083493552
"Wenlock Road , Hoxton",000979,42,51.53099181,-0.093903825
"Crawford Street, Marylebone",001036,43,51.52026,-0.157183945
"Bruton Street, Mayfair",001034,44,51.51073687,-0.144165239
"Boston Place, Marylebone",001035,45,51.522511,-0.162298
"Nesham Street, Wapping",001031,46,51.507131,-0.06691
"Warwick Avenue Station, Maida Vale",001027,47,51.52334476,-0.183846408
"Godliman Street, St. Paul's",000971,48,51.51248445,-0.099141408
"Curzon Street, Mayfair",003437,49,51.50706909,-0.145904427
"East Road, Hoxton",001054,50,51.52867339,-0.087459376
"Finsbury Library , Finsbury",000986,51,51.52671796,-0.104298194
"Roscoe Street, St. Luke's",001026,52,51.52295439,-0.094934859
"Grafton Street, Mayfair",003431,53,51.5099923,-0.143495266
"Golden Lane, Barbican",000967,54,51.52174785,-0.094475072
"Finsbury Circus, Liverpool Street",000984,55,51.51707521,-0.086685542
"Paddington Street, Marylebone",001033,56,51.52058381,-0.154701411
"Guilford Street , Bloomsbury",000974,57,51.52334672,-0.120202614
"New Inn Yard, Shoreditch",001032,58,51.52452699,-0.079248081
"Lisson Grove, St. John's Wood",001030,60,51.52644828,-0.172190727
"Great Dover Street, The Borough",001017,61,51.49738251,-0.089446947
"Cotton Garden Estate, Kennington",000990,62,51.4907579,-0.106323685
"Murray Grove , Hoxton",000989,63,51.53089041,-0.089782579
"William IV Street, Strand",001028,64,51.50946212,-0.124749274
"Gower Place , Euston",000969,65,51.52522753,-0.13518856
"Holborn Circus, Holborn",000982,66,51.51795029,-0.108657431
"Hatton Garden, Holborn",000985,67,51.51882555,-0.108028472
"Theobald's Road , Holborn",000975,68,51.52059681,-0.116688468
"Euston Road, Euston",000983,69,51.5262363,-0.134407652
"Calshot Street , King's Cross",001066,70,51.53136059,-0.117069978
"Newgate Street , St. Paul's",001074,71,51.5154186,-0.098850915
"Farringdon Lane, Clerkenwell",003432,72,51.52352001,-0.108340165
"Old Street Station, St. Luke's",001064,73,51.525615,-0.08853260000000773
"Vauxhall Cross, Vauxhall",001000,74,51.48591714,-0.124469948
"Torrens Street, Angel",001060,75,51.53219984,-0.105480698
"Longford Street, The Regent's Park",000976,76,51.52559505,-0.144083893
"Russell Square Station, Bloomsbury",000978,77,51.52341837,-0.124121774
"Sadlers Sports Centre, Finsbury",003433,78,51.52486887,-0.099489485
"Arundel Street, Temple",003455,79,51.511726,-0.11385596
"Webber Street , Southwark",003448,80,51.50069361,-0.102091246
"Great Titchfield Street, Fitzrovia",003450,81,51.52025302,-0.141327271
"Panton Street, West End",003452,83,51.50963938,-0.131510949
"Breams Buildings, Holborn",003449,84,51.51593725,-0.111778348
"Tanner Street, Bermondsey",000994,85,51.50064702,-0.078600401
"Sancroft Street, Vauxhall",003434,86,51.48947903,-0.115156562
"Bayley Street , Bloomsbury",001006,88,51.51858757,-0.132053392
"Tavistock Place, Bloomsbury",003439,89,51.5262503,-0.123509611
"Harrington Square 1, Camden Town",001038,90,51.53301907,-0.139174593
"Walnut Tree Walk, Vauxhall",001076,91,51.49368637,-0.111014912
"Borough Road, Elephant & Castle",001082,92,51.49889832,-0.100440521
"Cloudesley Road, Angel",002586,93,51.53440868,-0.109025404
"Bricklayers Arms, Borough",001070,94,51.49506109,-0.085814489
"Aldersgate Street, Barbican",001065,95,51.5208417,-0.097340162
"Falkirk Street, Hoxton",001047,96,51.53095071,-0.078505384
"Gloucester Road (North), Kensington",003447,97,51.49792478,-0.183834706
"Hampstead Road, Euston",000972,98,51.52554222,-0.138231303
"Old Quebec Street, Marylebone",001085,99,51.51457763,-0.158264483
"Albert Embankment, Vauxhall",001059,100,51.49043573,-0.122806861
"Queen Street 1, Bank",000999,101,51.51155322,-0.0929401
"Jewry Street, Aldgate",001045,102,51.51340693,-0.076793375
"Vicarage Gate, Kensington",003441,103,51.50472376,-0.192538767
"Crosswall, Tower",000991,104,51.51159481,-0.077121322
"Westbourne Grove, Bayswater",001041,105,51.51552971,-0.190240716
"Woodstock Street, Mayfair",001042,106,51.51410514,-0.147301667
"Finsbury Leisure Centre, St. Luke's",001049,107,51.52600832,-0.096317627
"Abbey Orchard Street, Westminster",003429,108,51.4981256,-0.1321021999999914
"Soho Square , Soho",001052,109,51.51563144,-0.132328837
"Wellington Road, St. John's Wood",001055,110,51.53304322,-0.172528678
"Park Lane , Hyde Park",001037,111,51.5100172,-0.157275636
"Gloucester Road (Central), South Kensington",003435,113,51.49646288,-0.183289032
"Park Road (Baker Street), The Regent's Park",001050,114,51.52451738,-0.158963647
"Braham Street, Aldgate",001062,115,51.51423368,-0.073537654
"Little Argyll Street, West End",000995,116,51.51449962,-0.141423695
"Lollard Street, Vauxhall",000998,117,51.49288067,-0.114934001
"Rochester Row, Westminster",003457,118,51.49582705,-0.13547809
"Bath Street, St. Luke's",000964,119,51.52589324,-0.090847761
"The Guildhall, Guildhall",001044,120,51.51573534,-0.093080779
"Baker Street, Marylebone",001086,121,51.51891348,-0.156166631
"Norton Folgate, Liverpool Street",001068,122,51.52111369,-0.078869751
"St. John Street, Finsbury",000992,123,51.52836014,-0.104724625
"Borough High Street, The Borough",000996,125,51.50069491,-0.094524319
"Museum of London, Barbican",001043,126,51.51782144,-0.096496865
"Wood Street, Guildhall",001063,127,51.51700801,-0.09388536
"Emperor's Gate, South Kensington",001116,128,51.49536226,-0.185296516
"Golden Square, Soho",003451,129,51.5118973,-0.137043852
"Tower Gardens , Tower",001071,130,51.50950627,-0.075459482
"Eversholt Street , Camden Town",001005,131,51.53300545,-0.136792671
"Bethnal Green Road, Shoreditch",000973,132,51.52364804,-0.074754872
"Derry Street, Kensington",003436,133,51.50136494,-0.191462381
"Wapping High Street, Wapping",001039,134,51.504904,-0.06797
"Clerkenwell Green, Clerkenwell",001053,135,51.52326004,-0.104708922
"Queen Victoria Street, St. Paul's",001048,136,51.51196176,-0.097441687
"Green Street, Mayfair",003464,138,51.51227622,-0.157436972
"Lambeth Road, Vauxhall",001078,139,51.49488108,-0.117974901
"Finsbury Square , Moorgate",001056,140,51.52096262,-0.085634242
"Chapel Place, Marylebone",001003,141,51.51530805,-0.147203711
"West Cromwell Road, Earl's Court",001001,142,51.49372451,-0.198286569
"Pont Street, Knightsbridge",001114,143,51.4968865,-0.161203828
"Kennington Cross, Kennington",001093,144,51.48894022,-0.111435796
"Ilchester Place, Kensington",001115,145,51.50074359,-0.202759212
"Vauxhall Bridge , Pimlico",001046,146,51.48836528,-0.129361842
"Portugal Street, Holborn",003456,147,51.51494305,-0.11614642
"Tachbrook Street, Victoria",000965,148,51.49211134,-0.138364847
"Kennington Road Post Office, Oval",001073,149,51.48478899,-0.110683213
"Holy Trinity Brompton, Knightsbridge",001002,150,51.49705603,-0.168917077
"Chepstow Villas, Notting Hill",001120,151,51.51213691,-0.201554966
"Hampton Street, Walworth",001118,152,51.49217002,-0.101536865
"Bayswater Road, Hyde Park",001096,153,51.511933,-0.174411
"Waterloo Station 3, Waterloo",001072,154,51.50379168,-0.11282408
"Lexham Gardens, Kensington",001121,155,51.49586666,-0.191933711
"New Kent Road, The Borough",000966,156,51.49443626,-0.092921165
"Wright's Lane, Kensington",001094,157,51.50039792,-0.193068385
"Trebovir Road, Earl's Court",001113,158,51.49085368,-0.196170309
"Waterloo Place, St. James's",003458,160,51.50663341,-0.131773845
"Guildhouse Street, Victoria",003478,161,51.49234577,-0.141334487
"Southampton Place, Holborn",001123,162,51.51760685,-0.121328408
"Sloane Avenue, Knightsbridge",003461,163,51.4931848,-0.167894973
"Cleveland Gardens, Bayswater",001178,164,51.515607,-0.183118788
"Orsett Terrace, Bayswater",002585,165,51.517932,-0.183716959
"Seville Street, Knightsbridge",001177,166,51.50185512,-0.159237081
"Eccleston Place, Victoria",003465,167,51.49395092,-0.147624377
"Argyll Road, Kensington",003463,168,51.50040123,-0.195455928
"Porchester Place, Paddington",003477,169,51.5147461,-0.1651640000000043
"Hardwick Street, Clerkenwell",001057,170,51.5278427,-0.1080682
"Collingham Gardens, Earl's Court",003459,171,51.4916156,-0.186753859
"Sumner Place, South Kensington",001124,172,51.49121192,-0.173715911
"Waterloo Road, South Bank",001176,173,51.50486,-0.113001
"Worship Street, Shoreditch",000997,175,51.521668,-0.079608554
"Gloucester Terrace, Bayswater",001173,176,51.51791921,-0.188098863
"Ashley Place, Victoria",001122,177,51.49616092,-0.140947636
"Warwick Square, Pimlico",003460,178,51.48985626,-0.141923621
"North Audley Street, Mayfair",001126,180,51.5129118,-0.153645496
"Belgrave Square, Belgravia",003473,181,51.49941247,-0.152317537
"Bell Street , Marylebone",001166,182,51.52202903,-0.165842551
"Riverlight North, Nine Elms",001165,183,51.482362,-0.13612398
"Portland Place, Marylebone",001164,184,51.52071513,-0.14521173
"Alderney Street, Pimlico",001174,185,51.48805753,-0.140741432
"South Wharf Road, Paddington",001167,186,51.51733558,-0.175810943
"Queen's Gate (South), South Kensington",001172,187,51.49247977,-0.178433004
"Claremont Square, Angel",001104,189,51.53166681,-0.109914711
"Rampayne Street, Pimlico",001106,190,51.48997562,-0.132845681
"Hyde Park Corner, Hyde Park",001075,191,51.50311799,-0.153520935
"Wardour Street, Soho",001163,192,51.51251523,-0.133201961
"Bankside Mix, Bankside",000963,193,51.50581776,-0.100186337
"Hop Exchange, The Borough",000960,194,51.50462759,-0.091773776
"Milroy Walk, South Bank",000959,195,51.50724437,-0.106237501
"Union Street, The Borough",000961,196,51.50368837,-0.098497684
"Stamford Street, South Bank",000962,197,51.50556905,-0.111606696
"Great Tower Street, Monument",001080,199,51.51048489,-0.082989638
"LMU Commercial Road, Whitechapel",001105,200,51.51492456,-0.066078037
"Dorset Square, Marylebone",001162,201,51.5225965,-0.161113413
"Leman Street, Aldgate",001102,202,51.51236389,-0.06954201
"West Smithfield Rotunda, Farringdon",001040,203,51.51821864,-0.100791005
"Margery Street, Clerkenwell",003468,204,51.52659961,-0.112432615
"New Road 1 , Whitechapel",001171,206,51.518154,-0.062697
"Grosvenor Crescent, Belgravia",001169,207,51.50135267,-0.153194766
"Mallory Street, Marylebone",001175,208,51.52505151,-0.166304359
"Denyer Street, Knightsbridge",003454,209,51.49358391,-0.165101392
"Hinde Street, Marylebone",003476,210,51.51681444,-0.151926305
"Cadogan Place, Knightsbridge",003469,211,51.49464523,-0.158105512
"Campden Hill Road, Notting Hill",003487,212,51.50658458,-0.199004026
"Wellington Arch, Hyde Park",001109,213,51.50274025,-0.149569201
"Endsleigh Gardens, Euston",001079,214,51.52683806,-0.130504336
"Moorfields, Moorgate",001092,215,51.51906932,-0.088285377
"Old Brompton Road, South Kensington",003479,216,51.49094565,-0.181190899
"Wormwood Street, Liverpool Street",002587,217,51.51615461,-0.082422399
"St. Luke's Church, Chelsea",003486,218,51.48971651,-0.170194408
"Bramham Gardens, Earl's Court",001183,219,51.49016361,-0.19039362
"Chelsea Green, Chelsea",001179,220,51.49066456,-0.166485083
"Horseferry Road, Westminster",001170,221,51.49481649,-0.13045856
"Knightsbridge, Hyde Park",001101,222,51.50275704,-0.155349725
"Rodney Road , Walworth",003481,223,51.49148474,-0.090220911
"Queensway, Kensington Gardens",001150,224,51.51031,-0.18740235
"Notting Hill Gate Station, Notting Hill",001182,225,51.50935342,-0.196422
"Charles II Street, West End",003488,226,51.50844614,-0.131961389
"Great Percy Street, Clerkenwell",003470,227,51.52891573,-0.115480888
"St. James's Square, St. James's",001067,228,51.50742485,-0.134621209
"Whitehall Place, Strand",001151,229,51.50654321,-0.123179697
"Poured Lines, Bankside",001144,230,51.50669284,-0.103137426
"Queen's Gate (Central), South Kensington",001089,231,51.49396755,-0.17873226
"Carey Street, Holborn",001139,232,51.51501025,-0.112753217
"Pall Mall East, West End",001153,233,51.50777049,-0.130699733
"Liverpool Road (N1 Centre), Angel",001081,234,51.53450449,-0.106992706
"Kennington Road, Vauxhall",001154,235,51.49571828,-0.110889274
"Fashion Street, Whitechapel",003483,236,51.51838043,-0.073438925
"Dock Street, Wapping",003467,237,51.5097860151,-0.0681619805156
"Frampton Street, Paddington",001099,238,51.5233534,-0.175116099
"Warren Street Station, Euston",001090,239,51.52443845,-0.138019439
"Colombo Street, Southwark",003472,240,51.50545935,-0.10569204
"Beaumont Street, Marylebone",003482,242,51.52200801,-0.151359288
"Gloucester Street, Pimlico",001103,243,51.49096258,-0.139625122
"Earnshaw Street , Covent Garden",001145,244,51.51611887,-0.128585022
"Grosvenor Road, Pimlico",001140,245,51.4853572,-0.142207481
"Berry Street, Clerkenwell",001159,246,51.52285301,-0.099994052
"St. John's Wood Church, The Regent's Park",001091,247,51.530529,-0.167515
"Triangle Car Park, Hyde Park",001088,248,51.50645179,-0.170279555
"Harper Road, The Borough",001137,249,51.49859784,-0.096191134
"Royal Avenue 1, Chelsea",003440,250,51.489932,-0.162727
"Brushfield Street, Liverpool Street",001161,251,51.518908,-0.079249
"Shoreditch Park, Hoxton",001051,253,51.53404294,-0.086379717
"Chadwell Street, Angel",003471,254,51.53051587,-0.106408455
"Clifton Road, Maida Vale",001147,255,51.52557531,-0.179592915
"Houghton Street, Strand",003484,256,51.51362054,-0.116764211
"Westminster University, Marylebone",001194,257,51.52248185,-0.154907218
"Kensington Gore, Knightsbridge",001193,258,51.50143293,-0.178656971
"Bourne Street, Belgravia",001180,259,51.490959,-0.1532331
"Broadwick Street, Soho",003489,260,51.5136846,-0.135580879
"Princes Square, Bayswater",003491,261,51.5134891,-0.191351186
"LSBU (Borough Road), Elephant & Castle",001095,262,51.49874469,-0.103132904
"St. Mary Axe, Aldgate",001184,263,51.51422502,-0.080660083
"Tysoe Street, Clerkenwell",001146,264,51.52644342,-0.109256828
"Southwick Street, Paddington",003490,265,51.51595344,-0.169249375
"Queen's Gate (North), Kensington",001204,266,51.50102668,-0.180246101
"Regency Street, Westminster",001155,267,51.49206037,-0.132224622
"Belgrave Road, Victoria",001087,268,51.49320445,-0.144132875
"Empire Square, The Borough",001209,269,51.50082346,-0.089740764
"Kennington Lane Rail Bridge, Vauxhall",001190,270,51.4863434,-0.122492418
"London Zoo,  The Regent's Park",001136,271,51.53583617,-0.156285395
"Baylis Road, Waterloo",001133,272,51.50144456,-0.110699309
"Belvedere Road 1, South Bank",001186,273,51.50613324,-0.114686385
"Warwick Road, Olympia",001134,274,51.49671237,-0.20528437
"Barbican Centre, Barbican",001191,275,51.52004497,-0.092176447
"Lower Thames Street, Monument",001098,276,51.50930161,-0.084985356
"Kensington Church Street, Kensington",001143,277,51.50315739,-0.191496313
"Tooley Street, Bermondsey",001142,278,51.5034938,-0.07962099
"Royal Avenue 2, Chelsea",003462,280,51.490083,-0.162418
"Smith Square, Westminster",003480,281,51.49580589,-0.127575233
"Royal London Hospital, Whitechapel",001077,282,51.518675,-0.06111
"Kingsway, Covent Garden",001141,283,51.51440928,-0.118478757
"Lambeth North Station, Waterloo",001117,284,51.49914063,-0.112031483
"St. John's Wood Road, St. John's Wood",001187,286,51.5272947,-0.174653609
"Bedford Way, Bloomsbury",001156,287,51.52367314,-0.128377673
"Elizabeth Bridge, Victoria",001138,288,51.49236962,-0.147478734
"South Audley Street, Mayfair",003493,289,51.50923,-0.15128999999998882
"St Mary's Hospital, Paddington",003496,290,51.518268,-0.17110323
"Claverton Street, Pimlico",001135,291,51.48483991,-0.138089062
"Montpelier Street, Knightsbridge",001206,292,51.49888404,-0.165471605
"Kensington Olympia Station, Olympia",001214,293,51.49815779,-0.209494128
"St. George's Square, Pimlico",001195,294,51.488226,-0.135635511
"Swan Street, The Borough",001216,295,51.50029631,-0.092762704
"Knaresborough Place, Earl's Court",200069,296,51.49363156,-0.190603326
"Geraldine Street, Elephant & Castle",003498,297,51.49612799,-0.106000855
"Curlew Street, Shad Thames",001213,298,51.50227992,-0.074189225
"Vincent Square, Westminster",001196,299,51.49398524,-0.136928582
"Serpentine Car Park, Hyde Park",001217,300,51.505014,-0.17306032
"Marylebone Lane, Marylebone",001152,301,51.51475963,-0.148105415
"Putney Pier, Wandsworth",003492,302,51.466907,-0.216573
"Albert Gate, Hyde Park",001132,303,51.50295379,-0.158456089
"Rathbone Street, Fitzrovia",003497,306,51.51816295,-0.135025698
"Black Lion Gate, Kensington Gardens",001157,307,51.50990837,-0.187842717
"Long Lane , Bermondsey",001189,308,51.49907558,-0.085666316
"Embankment (Savoy), Strand",001192,309,51.50963123,-0.119047563
"Black Prince Road, Vauxhall",001205,310,51.4908679,-0.116911864
"Foley Street, Fitzrovia",003494,311,51.51918144,-0.140485596
"Grove End Road, St. John's Wood",001130,312,51.53088935,-0.176770502
"Wells Street, Fitzrovia",003495,313,51.51734403,-0.138072691
"Tyers Gate, Bermondsey",003485,314,51.50088934,-0.083159352
"The Tennis Courts, The Regent's Park",001199,315,51.52536703,-0.153463612
"Warwick Row, Westminster",000968,316,51.497998,-0.14296064
"Dickens Square, Borough",001208,317,51.49679128,-0.093913472
"Sackville Street, Mayfair",001197,318,51.51004801,-0.138846453
"Baldwin Street, St. Luke's",003500,319,51.52702563,-0.088542771
"Queen Mother Sports Centre, Victoria",001148,320,51.49357351,-0.139956043
"Bermondsey Street, Bermondsey",002637,321,51.49785559,-0.081608045
"Palissy Street, Shoreditch",003502,322,51.526293,-0.073955
"Clifton Street, Shoreditch",003501,323,51.523196,-0.083067
"Ontario Street, Elephant & Castle",001200,324,51.49652013,-0.101384068
"St. Martin's Street, West End",001158,325,51.50908747,-0.129697889
"Graham Street, Angel",001131,326,51.53266186,-0.099981142
"Westbourne Green, Westbourne",001128,327,51.522168,-0.1928141999999866
"New North Road 2, Hoxton",002641,328,51.53114,-0.086016
"Prince Albert Road, The Regent's Park",002636,329,51.53589283,-0.160854428
"Eastbourne Mews, Paddington",001203,330,51.51641749,-0.179135079
"Bunhill Row, Moorgate",001211,331,51.52085887,-0.089887855
"Nevern Place, Earl's Court",001210,332,51.49334336,-0.194757949
"Palace Gardens Terrace, Notting Hill",002633,333,51.50860544,-0.193764092
"Concert Hall Approach 1, South Bank",002635,334,51.505044,-0.115851
"Tavistock Street, Covent Garden",001207,335,51.51196803,-0.120718759
"Concert Hall Approach 2, South Bank",001212,336,51.504942,-0.115533
"Pembridge Villas, Notting Hill",002589,337,51.51108452,-0.197524944
"Wellington Street , Strand",001202,338,51.51175646,-0.119643424
"Risinghill Street, Angel",001127,339,51.5333196,-0.1117812
"Bank of England Museum, Bank",001201,340,51.51444134,-0.087587447
"Craven Street, Strand",001160,341,51.50810309,-0.12602103
"London Zoo Car Park, The Regent's Park",001188,343,51.53692216,-0.150181444
"Flood Street, Chelsea",001218,345,51.48802358,-0.166878535
"Lower Marsh, Waterloo",001219,347,51.50013942,-0.113936001
"Grosvenor Square, Mayfair",010627,348,51.51217033,-0.150481272
"St. George Street, Mayfair",001221,349,51.51196,-0.142783033
"Queen's Gate, Kensington Gardens",001231,350,51.5017154373867,-0.1798541843891
"Macclesfield Rd, St Lukes",001226,351,51.529423,-0.097122
"Vauxhall Street, Vauxhall",001224,352,51.486965,-0.116625
"Greycoat Street , Westminster",010623,353,51.49459148,-0.134234258
"Northumberland Avenue, Strand",001097,354,51.506767,-0.123702
"Clapham Common Station, Clapham Common",002694,355,51.461388,-0.13922146
"South Kensington Station, South Kensington",002685,356,51.494412,-0.173881
"Howland Street, Fitzrovia",002691,357,51.520994,-0.139016
"High Holborn , Covent Garden",001229,358,51.516226,-0.124826
"Butler Place, Westminster",002662,359,51.49782999,-0.135440826
"Howick Place, Westminster",002666,360,51.49675303,-0.138733562
"Waterloo Station 2, Waterloo",002692,361,51.50391973,-0.11342629
"Royal College Street, Camden Town",002686,362,51.536264,-0.133952
"Store Street, Bloomsbury",003507,364,51.519572,-0.13214036
"City Road, Angel",002690,365,51.530344,-0.100168
"Millennium Hotel, Mayfair",001230,366,51.5109192966489,-0.1511263847351
"Harrowby Street, Marylebone",002680,367,51.5173721,-0.1642075
"Harriet Street, Knightsbridge",002681,368,51.50024195,-0.15934065
"Paddington Green, Paddington",002670,370,51.520205,-0.174593
"King Edward Walk, Waterloo",002639,371,51.49775,-0.10988
"Sardinia Street, Holborn",002649,372,51.515208,-0.117863
"Prince Consort Road, Knightsbridge",003499,373,51.49980661,-0.176415994
"Waterloo Station 1, Waterloo",002696,374,51.50402794,-0.11386436
"Kensington Town Hall, Kensington",010632,375,51.50194596,-0.194392952
"Millbank Tower, Pimlico",002683,376,51.49188409,-0.125674815
"Waterloo Bridge, South Bank",002648,377,51.50535447,-0.113656543
"Natural History Museum, South Kensington",002677,378,51.49559291,-0.179077626
"Turquoise Island, Notting Hill",002682,379,51.51431171,-0.200838199
"Stanhope Gate, Mayfair",003506,380,51.50686435,-0.150666888
"Charlotte Street, Fitzrovia",002669,381,51.51953043,-0.13577731
"Farm Street, Mayfair",002678,382,51.50935171,-0.14744969
"Frith Street, Soho",002660,383,51.51310333,-0.13121385
"Marloes Road, Kensington",003505,384,51.496481,-0.192404
"Moor Street, Soho",003504,386,51.51352755,-0.130110822
"Fire Brigade Pier, Vauxhall",002703,387,51.49369988,-0.121394101
"Southampton Street, Strand",001228,388,51.51070161,-0.121723604
"Upper Grosvenor Street, Mayfair",010621,389,51.51013066,-0.155757901
"Buxton Street 1, Shoreditch",001223,390,51.521776,-0.068856
"Clifford Street, Mayfair",002688,391,51.51066202,-0.142345694
"Imperial College, Knightsbridge",001220,392,51.49942855,-0.179702476
"Snow Hill, Farringdon",002699,393,51.51733427,-0.103604248
"Aberdeen Place, St. John's Wood",002698,394,51.524826,-0.176268
"Cadogan Gardens, Chelsea",002695,395,51.492462,-0.159919
"Shouldham Street, Marylebone",002693,396,51.51809,-0.163609
"Devonshire Terrace, Bayswater",001227,397,51.51348,-0.17977
"Holland Park, Kensington",010631,398,51.502319,-0.200742
"Brick Lane Market, Shoreditch",002687,399,51.52261762,-0.071653961
"George Street, Marylebone",001225,400,51.517703,-0.154106
"Columbia Road, Shoreditch",002701,401,51.528187,-0.075375
"Penfold Street, Marylebone",010625,402,51.52289229,-0.171681991
"George Place Mews, Marylebone",010630,403,51.51689296,-0.158249929
"Palace Gate, Kensington Gardens",001110,404,51.50204238,-0.184400221
"Gloucester Road Station, South Kensington",001107,405,51.49418566,-0.18267094
"Sun Street, Liverpool Street",001129,408,51.520009,-0.083935724
"Strata, Elephant & Castle",010624,409,51.493146,-0.099828
"Edgware Road Station, Marylebone",001058,410,51.519968,-0.169774
"Rotherhithe Roundabout, Rotherhithe",010629,411,51.499169,-0.055846029
"Cleaver Street, Kennington",010628,412,51.488105,-0.110121
"Chelsea Bridge, Pimlico",022160,419,51.485821,-0.149004
"Southwark Station 2, Southwark",022163,421,51.504044,-0.104778
"Eaton Square (South), Belgravia",022164,423,51.49456127,-0.15393398
"Ebury Bridge, Pimlico",022159,424,51.490491,-0.149186
"Vincent Street, Pimlico",022161,426,51.493072,-0.129925
"Cheapside, Bank",022180,427,51.51397065,-0.09294031
"Exhibition Road, Knightsbridge",022179,428,51.499917,-0.174554
"South Parade, Chelsea",022182,430,51.48902,-0.17524
"Crinan Street, King's Cross",022183,431,51.534474,-0.122203
"Exhibition Road Museums 1, South Kensington",022158,432,51.496468,-0.17379696
"Wren Street, Holborn",022169,433,51.524564,-0.116279
"Kennington Station, Kennington",022170,435,51.488852,-0.105593
"Red Lion Street, Holborn",022171,436,51.51824,-0.11655
"Vauxhall Walk, Vauxhall",200056,437,51.488124,-0.120903
"Killick Street, King's Cross",200053,439,51.5338,-0.118677
"Kennington Oval, Oval",200032,440,51.483145,-0.113134
"Sail Street, Vauxhall",200039,441,51.495656,-0.114605
"Walmer Road, Avondale",200035,442,51.510101,-0.211358
"Philpot Street, Whitechapel",200033,443,51.515256,-0.058641
"Bethnal Green Garden, Bethnal Green",200047,444,51.52568,-0.055312
"Cheshire Street, Bethnal Green",200003,445,51.52388,-0.065076
"York Hall, Bethnal Green",200042,446,51.528936,-0.055894
"Jubilee Crescent, Cubitt Town",200054,447,51.493381,-0.007542
"Fisherman's Walk West, Canary Wharf",022165,448,51.50623,-0.02296
"Shadwell Station, Shadwell",200020,449,51.511088,-0.057159
"Jubilee Street, Stepney",200002,450,51.515975,-0.053177
"Hermitage Court, Wapping",200021,451,51.504719,-0.063531
"St. Katharine's Way, Tower",200049,452,51.505697,-0.070542
"Garnet Street, Shadwell",200045,453,51.508447,-0.055167
"Napier Avenue, Millwall",200046,454,51.487679,-0.021582
"East Ferry Road, Cubitt Town",200031,455,51.49447,-0.014409
"Parkway, Camden Town",200118,456,51.538071,-0.144664
"Castlehaven Road, Camden Town",200016,457,51.542138,-0.145393
"Wapping Lane, Wapping",200034,458,51.504749,-0.057544
"Gunmakers Lane, Old Ford",200014,459,51.535179,-0.03338
"Burdett Road, Mile End",200123,460,51.516196,-0.029138
"Aston Street, Stepney",200013,461,51.516,-0.038775
"Bonny Street, Camden Town",200105,462,51.541603,-0.138853
"Thurtle Road, Haggerston",200093,463,51.534776,-0.071881
"St. Mary & St. Michael Church, Stepney",200082,464,51.51417,-0.052099
"Pitfield Street North,Hoxton",200152,465,51.53558,-0.08249
"Whiston Road, Haggerston",200158,466,51.534464,-0.076341
"Southern Grove, Bow",200168,467,51.523538,-0.030556
"Cantrell Road, Bow",200150,468,51.521564,-0.022694
"Lindfield Street, Poplar",022178,469,51.513757,-0.020467
"Mostyn Grove, Bow",200174,470,51.530535,-0.025492
"Hewison Street, Old Ford",200006,471,51.533283,-0.028155
"Malmesbury Road, Bow",200019,472,51.529452,-0.027616
"Millharbour, Millwall",022167,473,51.496137,-0.019355
"Gascoyne Road, Victoria Park",200155,474,51.541515,-0.038557746
"Lightermans Road, Millwall",200004,475,51.499041,-0.020157
"Stebondale Street, Cubitt Town",200009,476,51.489096,-0.009205
"Spindrift Avenue, Millwall",200018,477,51.49109,-0.018716
"Stepney Green Station, Stepney",200012,478,51.521889,-0.04667
"Pott Street, Bethnal Green",200156,479,51.527152,-0.058005
"Flamborough Street, Limehouse",200115,480,51.5128711,-0.0389866
"Saunders Ness Road, Cubitt Town",200022,481,51.487129,-0.0090011
"Exhibition Road Museums 2, South Kensington",200052,482,51.495947,-0.17368958
"Albert Gardens, Stepney",022166,483,51.51328,-0.047784
"Bromley High Street, Bow",022172,484,51.528828,-0.013258
"Old Ford Road, Bethnal Green",022173,485,51.531127,-0.048017
"Granby Street, Shoreditch",022174,486,51.525645,-0.069543
"Canton Street, Poplar",022175,487,51.511811,-0.025626
"Reardon Street, Wapping",022176,488,51.506946,-0.058681
"Christian Street, Whitechapel",022177,489,51.513074,-0.064094
"Pennington Street, Wapping",200090,490,51.508622,-0.065006
"Queen Mary's, Mile End",200249,491,51.522507,-0.041378
"Maplin Street, Mile End",200230,492,51.525501,-0.032267204
"South Quay East, Canary Wharf",200233,494,51.50196,-0.016251
"Bow Church Station, Bow",200252,495,51.528169,-0.018703
"Devons Road, Bow",200255,496,51.52512,-0.015578
"Merchant Street, Bow",200242,497,51.526578,-0.027581
"Bow Road Station, Bow",200251,498,51.527058,-0.025296
"Furze Green, Bow",200011,499,51.519265,-0.021345
"Ansell House, Stepney",200148,500,51.520019,-0.05438
"Cephas Street, Bethnal Green",200073,501,51.522561,-0.054883
"Bonner Gate, Victoria Park",200241,502,51.53341,-0.049591815
"Cleveland Way, Stepney",200250,503,51.520893,-0.051394
"St. John's Park, Cubitt Town",200243,504,51.496454,-0.009506
"Ackroyd Drive, Bow",200038,505,51.520398,-0.026768
"Bell Lane, Liverpool Street",200036,506,51.517475,-0.075855
"Clarkson Street, Bethnal Green",200131,507,51.528692,-0.059091
"Fournier Street, Whitechapel",200157,508,51.519362,-0.074431
"Fore Street Avenue, Guildhall",200253,509,51.517842,-0.090075
"Westferry DLR, Limehouse",200238,510,51.509303,-0.025996
"Sutton Street, Shadwell",200256,511,51.511066,-0.053558
"Pritchard's Road, Bethnal Green",200083,512,51.532091,-0.06142
"Portman Square, Marylebone",200008,514,51.516204,-0.155525
"Russell Gardens, Olympia",200080,515,51.500088,-0.211316
"Chrisp Street Market, Poplar",200089,516,51.5112,-0.014438
"Ford Road, Old Ford",200027,517,51.532513,-0.033085
"Antill Road, Mile End",200041,518,51.528224,-0.037471
"Teviot Street, Poplar",200254,519,51.518811,-0.011662
"Bancroft Road, Bethnal Green",200234,520,51.526041,-0.047218
"Driffield Road, Old Ford",200030,521,51.534137,-0.037366
"Clinton Road, Mile End",200161,522,51.525941,-0.036017
"Langdon Park, Poplar",200160,523,51.51549,-0.013475
"Lancaster Gate , Bayswater",200017,524,51.511654,-0.179668
"Blythe Road, Olympia",200153,525,51.496927,-0.21350087
"Lancaster Drive, Blackwall",200143,526,51.503143,-0.008428
"Hansard Mews, Holland Park",200154,527,51.503802,-0.215808
"Clarges Street, Mayfair",200088,528,51.507326,-0.145827
"Manresa Road, Chelsea",200010,529,51.486892,-0.170983
"Newby Place, Poplar",200146,530,51.508896,-0.012413
"Twig Folly Bridge, Mile End",200167,531,51.530326,-0.042744
"Jubilee Plaza, Canary Wharf",200163,532,51.5034,-0.020242300000006708
"Wellington Row, Bethnal Green",200165,533,51.528222,-0.069743
"Goldsmith's Row, Haggerston",200159,534,51.531864,-0.066035
"Gloucester Avenue, Camden Town",200145,535,51.537349,-0.147154
"Queensbridge Road, Haggerston",200024,536,51.53385,-0.06992
"Old Montague Street, Whitechapel",200239,537,51.51793,-0.067937
"Naval Row, Blackwall",200050,538,51.508981,-0.00699
"Hoxton Station, Hoxton",200151,539,51.531091,-0.075901
"Albany Street, The Regent's Park",200134,540,51.528302,-0.144466
"Green Park Station, Mayfair",200096,541,51.506613,-0.142844
"Salmon Lane, Limehouse",200147,542,51.514115,-0.033828
"Lansdowne Walk, Ladbroke Grove",200065,543,51.509591,-0.204666
"Percival Street, Finsbury",200051,544,51.526153,-0.102208
"Arlington Road, Camden Town",200070,545,51.539957,-0.145246
"New Fetter Lane, Holborn",200044,546,51.517428,-0.107987
"East India DLR, Blackwall",200127,547,51.509474,-0.002275
"Westminster Bridge Road, Elephant & Castle",200076,548,51.498386,-0.107913
"Gaywood  Street, Elephant & Castle",200132,549,51.49605,-0.104193
"Harford Street, Mile End",200102,550,51.521564,-0.039264
"Import Dock, Canary Wharf",200066,551,51.505772,-0.016460175
"Watney Street, Shadwell",200149,552,51.511542,-0.056667
"Regent's Row , Haggerston",200064,553,51.535678,-0.062546
"Aberfeldy Street, Poplar",200078,554,51.513548,-0.005659
"Heron Quays DLR, Canary Wharf",200138,556,51.502661,-0.021596
"King Edward Street, St Pauls",200203,557,51.51601,-0.0985
"Page Street, Westminster",200048,558,51.493978,-0.127554
"Abbotsbury Road, Holland Park",200111,559,51.501391,-0.205991
"Ladbroke Grove Central, Ladbroke Grove",200015,560,51.511624,-0.205921
"Rectory Square, Stepney",200037,561,51.518369,-0.043371
"Bury Place, Holborn",200074,562,51.51742,-0.12318999999999392
"Preston's Road, Cubitt Town",200232,563,51.499286,-0.009152
"Somerset House, Strand",200068,564,51.509943,-0.117619
"Selby Street, Whitechapel",200135,565,51.521905,-0.063386
"Westfield Ariel Way, White City",200141,566,51.509158,-0.224103
"Bishop's Bridge Road West, Bayswater",200110,568,51.51616,-0.18697
"Pitfield Street Central, Hoxton",200248,569,51.53213,-0.08299
"Upper Bank Street, Canary Wharf",200099,570,51.503083,-0.017676
"Westfield Southern Terrace ,Shepherd's Bush",200061,571,51.506256,-0.218337
"Greenland Road, Camden Town",200026,572,51.539099,-0.141728
"Limerston Street, West Chelsea",200001,573,51.485587,-0.18119
"Eagle Wharf Road, Hoxton",200246,574,51.53356,-0.09315
"Alpha Grove, Millwall",200109,576,51.497304,-0.022793
"Globe Town Market, Bethnal Green",200247,577,51.528869,-0.047548
"Hollybush Gardens, Bethnal Green",200244,578,51.527607,-0.057133
"Queen Street 2, Bank",200128,579,51.511246,-0.093051
"Doddington Grove, Kennington",200084,580,51.48692917,-0.102996299
"Abingdon Green, Westminster",200231,583,51.49764,-0.12597218
"Ilchester Gardens, Bayswater",200086,584,51.51244,-0.19096
"Mudchute DLR, Cubitt Town",200092,586,51.490645,-0.014582
"Monument Street, Monument",200101,587,51.50964,-0.08497
"Hoxton Street, Hoxton",200071,588,51.52959,-0.0801
"Drayton Gardens, West Chelsea",200060,589,51.487196,-0.179369
"Greenberry Street, St.John's Wood",200236,590,51.53256,-0.16862
"Westfield Library Corner, Shepherd's Bush",200227,591,51.506093,-0.2242237
"Bishop's Bridge Road East, Bayswater",200108,592,51.5171,-0.18377
"Northdown Street, King's Cross",200058,593,51.531066,-0.11934
"Kingsway Southbound, Strand",200226,594,51.513875,-0.117774
"Hammersmith Road, Hammersmith",200142,595,51.493267,-0.21985
"Parson's Green , Parson's Green",200237,596,51.472817,-0.199783
"Fulham Park Road, Fulham",200229,597,51.473471,-0.20782
"Southerton Road, Hammersmith",200166,598,51.494499,-0.228188
"Manbre Road, Hammersmith",200235,599,51.485743,-0.223616
"South Lambeth Road, Vauxhall",200133,600,51.481747,-0.124642
"BBC White City, White City",200136,601,51.514767,-0.225787
"Union Grove, Wandsworth Road",200211,602,51.472993,-0.133972
"Caldwell Street, Stockwell",200137,603,51.477839,-0.116493
"St Martins Close, Camden Town",200195,604,51.538792,-0.138535
"Seymour Place, Marylebone",200198,605,51.520331,-0.163667
"Addison Road, Holland Park",200218,606,51.504199,-0.210941
"Putney Bridge Station, Fulham",200125,607,51.468814,-0.210279
"Colet Gardens, Hammersmith",200224,608,51.491093,-0.216493
"Sugden Road, Clapham",200208,609,51.46512358,-0.157788279
"Danvers Street, West Chelsea",200222,610,51.48256792,-0.172078187
"Princedale Road , Holland Park",200067,611,51.50646524,-0.208486599
"Wandsworth Rd, Isley Court, Wandsworth Road",200175,612,51.46925984,-0.141812513
"Woodstock Grove, Shepherd's Bush",200214,613,51.50403821,-0.217400093
"London Fields, Hackney Central",200025,614,51.54119,-0.058826101
"Finlay Street, Fulham",200029,615,51.4768851,-0.215895601
"Aintree Street, Fulham",200098,616,51.48102131,-0.209973497
"Elysium Place, Fulham",200028,617,51.47107905,-0.207842908
"Eel Brook Common, Walham Green",300003,618,51.47625965,-0.193254007
"Irene Road, Parsons Green",300012,619,51.4737636,-0.197010096
"Surrey Lane, Battersea",300010,620,51.47518024,-0.167160736
"Wandsworth Town Station, Wandsworth",200091,621,51.46086446,-0.187427294
"Lansdowne Road, Ladbroke Grove",200172,622,51.50748124,-0.205535908
"Nantes Close, Wandsworth",200186,623,51.46193072,-0.180791784
"Courland Grove, Wandsworth Road",200173,624,51.4729184,-0.132102704
"Queen's Circus, Battersea Park",200190,625,51.47761941,-0.149551631
"Normand Park, West Kensington",300008,626,51.48438657,-0.20481514
"Holden Street, Battersea",200007,627,51.4687905,-0.158230901
"William Morris Way, Sands End",200062,628,51.46881971,-0.184318843
"Morie Street, Wandsworth",200187,629,51.45995384,-0.190184054
"Clarence Walk, Stockwell",200194,630,51.47073264,-0.126994068
"Battersea Park Road, Nine Elms",200183,631,51.4795017,-0.141770709
"Sheepcote Lane, Battersea",200176,632,51.47053858,-0.163041605
"Vereker Road, West Kensington",200116,633,51.48959104,-0.209378594
"Brook Green South, Brook Green",300002,634,51.49434708,-0.215804559
"Greyhound Road, Hammersmith",200215,635,51.48606206,-0.214428378
"South Park, Sands End",200180,636,51.46706414,-0.193502076
"Spencer Park, Wandsworth Common",200191,637,51.45787019,-0.174691623
"Falcon Road, Clapham Junction",300014,638,51.46663393,-0.169821175
"Silverthorne Road, Battersea",200179,640,51.47286577,-0.148059277
"Archbishop's Park, Waterloo",300025,641,51.49824168,-0.117495865
"Fawcett Close, Battersea",200192,642,51.46916161,-0.174485792
"All Saints' Road, Portobello",300026,643,51.5190427,-0.204764421
"Rainville Road, Hammersmith",200182,644,51.48373225,-0.223852256
"Great Suffolk Street, The Borough",200200,645,51.50173215,-0.100292412
"Buckingham Gate, Westminster",200178,646,51.49886563,-0.137424571
"Richmond Way, Shepherd's Bush",200181,647,51.50035306,-0.217515071
"Peterborough Road, Sands End",200171,648,51.46904022,-0.19627483
"World's End Place, West Chelsea",300009,649,51.48180515,-0.18027465
"St. Mark's Road, North Kensington",300034,650,51.51687069,-0.213872396
"Thorndike Close, West Chelsea",300030,651,51.48089844,-0.183853573
"Evesham Street, Avondale",300022,652,51.51148696,-0.218190203
"Simpson Street, Clapham Junction",200196,653,51.47084722,-0.17070367
"Ashmole Estate, Oval",200223,654,51.48267821,-0.117661574
"Crabtree Lane, Fulham",200221,655,51.48294452,-0.219346128
"Broomhouse Lane, Parsons Green",200040,656,51.46841875,-0.199135704
"Blythe Road West, Shepherd's Bush",200220,657,51.49968,-0.221791551
"Ethelburga Estate, Battersea Park",300005,658,51.47729232,-0.16478637
"Blackfriars Station, St. Paul's",200212,659,51.511934,-0.10307894
"West Kensington Station, West Kensington",300020,660,51.49087074,-0.206029743
"All Saints Church, Portobello",300023,661,51.51632095,-0.202608612
"Phene Street, Chelsea",200189,662,51.48498496,-0.167919869
"Clarendon Road, Avondale",200124,663,51.51323001,-0.211593602
"Austin Road, Battersea Park",300013,664,51.474376,-0.155442787
"Smugglers Way, Wandsworth",200113,665,51.46108367,-0.191722864
"Harris Academy, Bermondsey",300004,666,51.492668,-0.072350665
"Shepherd's Bush Road North, Shepherd's Bush",200209,667,51.5015946,-0.222293381
"Ravenscourt Park Station, Hammersmith",300037,668,51.49422354,-0.236769936
"Teversham Lane, Stockwell",300036,669,51.47614939,-0.1232585
"Ashley Crescent, Battersea",200169,670,51.46718562,-0.152248582
"Parsons Green Station, Parsons Green",300052,671,51.475089,-0.201968
"Chicheley Street, South Bank",200206,672,51.502698,-0.1167474
"Hibbert Street, Battersea",300051,673,51.46517078,-0.18038939
"Carnegie Street, King's Cross",300035,674,51.53546778,-0.11619105
"Usk Road, Clapham Junction",200126,675,51.46348914,-0.182126248
"Hartington Road, Stockwell",200207,676,51.47787084,-0.126874471
"Heath Road, Battersea",200023,677,51.46866929,-0.146544642
"Esmond Street, Putney",200170,678,51.46231278,-0.211468596
"Orbel Street, Battersea",200114,679,51.47453545,-0.170210533
"Westbridge Road, Battersea",200210,680,51.47768469,-0.170329317
"Bishop's Avenue, Fulham",200043,681,51.47303687,-0.214749808
"Dorothy Road, Clapham Junction",200119,683,51.46506424,-0.163750945
"Neville Gill Close, Wandsworth",200188,684,51.45475251,-0.195197203
"Osiers Road, Wandsworth",200219,685,51.46067005,-0.198735357
"Beryl Road, Hammersmith",200097,686,51.48814438,-0.222456468
"Clements Road, Bermondsey",200216,687,51.4954,-0.061698585
"Northfields, Wandsworth",200204,688,51.46095151,-0.20066766
"Spanish Road, Clapham Junction",200106,689,51.45922541,-0.180884959
"Stanley Grove, Battersea",200199,690,51.47047503,-0.152130083
"Erin Close, Walham Green",200184,691,51.47946386,-0.195777222
"Cadogan Close, Victoria Park",200112,692,51.54211855,-0.028941601
"Felsham Road, Putney",300019,693,51.464786,-0.215618902
"Putney Rail Station, Putney",300033,694,51.46071722,-0.216526155
"Islington Green, Angel",300031,695,51.53638435,-0.102757578
"Charing Cross Hospital, Hammersmith",300018,696,51.48728535,-0.217995921
"Charlotte Terrace, Angel",200129,697,51.53639219,-0.112721065
"Shoreditch Court, Haggerston",200121,698,51.53908372,-0.070329419
"Belford House, Haggerston",200057,699,51.5366541,-0.07023031
"Battersea Church Road, Battersea",200201,700,51.47696496,-0.174347066
"Vicarage Crescent, Battersea",200077,701,51.47287627,-0.176267008
"Durant Street, Bethnal Green",200213,702,51.52868155,-0.065550321
"St. Bride Street, Holborn",200094,703,51.51505991,-0.10534448
"Mexfield Road, East Putney",200063,704,51.45682071,-0.202802098
"Upper Richmond Road, Putney",300042,705,51.45971528,-0.212145939
"Snowsfields, London Bridge",200193,706,51.50215353,-0.083632928
"Barons Court Station, West Kensington",200197,707,51.49021762,-0.215087092
"Montserrat Road , Putney",200205,709,51.46321128,-0.215550761
"Albert Bridge Road, Battersea Park",300045,710,51.47439218,-0.163347594
"Everington Street, Fulham",300028,711,51.48335692,-0.216305546
"Mile End Stadium, Mile End",300056,712,51.51854104,-0.034903714
"Hawley Crescent, Camden Town",200122,713,51.54100708,-0.14326094
"Stewart's Road, Wandsworth Road",300055,714,51.47311696,-0.137235175
"Aylward Street, Stepney",300049,715,51.51563007,-0.049067243
"Stainsby Road , Poplar",300048,716,51.51542791,-0.02356501
"Dunston Road , Haggerston",300024,717,51.53658514,-0.075885686
"Ada Street, Hackney Central",300040,718,51.53571683,-0.060291813
"Victoria Park Road, Hackney Central",300011,719,51.53642464,-0.054162264
"Star Road, West Kensington",300038,720,51.48724429,-0.205279052
"Wendon Street, Old Ford",300039,721,51.53603947,-0.026262677
"Finnis Street, Bethnal Green",300041,722,51.52458353,-0.058631453
"Stephendale Road, Sands End",300053,723,51.46822047,-0.190346493
"Alma Road, Wandsworth",300046,724,51.45799126,-0.184806157
"Walworth Square, Walworth",300050,725,51.491327,-0.096518684
"Alfreda Street, Battersea Park",300047,726,51.47505096,-0.150908371
"Chesilton Road, Fulham",300054,727,51.47569809,-0.20587627
"Putney Bridge Road, East Putney",300044,728,51.46199911,-0.206240805
"St. Peter's Terrace, Fulham",300043,729,51.47893931,-0.208485293
"Bridge Avenue, Hammersmith",300082,730,51.49208492,-0.229116862
"Michael Road, Walham Green",300095,731,51.47727637,-0.189210466
"Duke Street Hill, London Bridge",300083,732,51.50630441,-0.087262995
"Park Lane, Mayfair",300093,733,51.50542628,-0.150817316
"Plough Terrace, Clapham Junction",300094,734,51.46230566,-0.175407201
"Grant Road East, Clapham Junction",200120,735,51.46489445,-0.17302926
"Queensdale Road, Shepherd's Bush",300088,736,51.50659035,-0.216104479
"Fulham Broadway, Walham Green",300086,737,51.47993289,-0.19411695
"Imperial Road, Sands End",300087,738,51.47514228,-0.187278987
"Hortensia Road, West Brompton",300091,739,51.48176572,-0.185273723
"Sirdar Road, Avondale",300084,740,51.51092871,-0.214594781
"Freston Road, Avondale",300085,741,51.5129814,-0.219486603
"Blenheim Crescent, Ladbroke Grove",300090,742,51.51510818,-0.208565479
"Oxford Road, Putney",300078,743,51.46079243,-0.212607684
"Ingrave Street, Clapham Junction",300077,744,51.46745485,-0.172293499
"Upcerne Road, West Chelsea",300075,745,51.47816972,-0.18243547
"Lots Road, West Chelsea",300076,746,51.4795738,-0.17903854
"Ormonde Gate, Chelsea",300089,747,51.48796408,-0.161765173
"Hertford Road, De Beauvoir Town",300092,748,51.53727795,-0.079201849
"Haggerston Road, Haggerston",300081,749,51.53932857,-0.074284675
"Culvert Road, Battersea",300080,750,51.4710956,-0.157850096
"Newton Street, Covent Garden",300074,751,51.51612862,-0.120909408
"London Street, Paddington",300079,752,51.515117,-0.17371276
"Clapham South, Clapham South",300006,753,51.452997,-0.1486519000000044
"Grenfell Road, Avondale",300067,754,51.5129006,-0.214762686
"The Vale, Chelsea",300058,755,51.48512191,-0.174971902
"Prince of Wales Drive, Battersea Park",300073,756,51.47515398,-0.159169801
"Harcourt Terrace, West Brompton",300069,757,51.48795853,-0.187404506
"Westbourne Park Road, Portobello",300057,758,51.51787005,-0.201005397
"Broadley Terrace, Marylebone",300072,759,51.52456169,-0.165668686
"Elgin Avenue, Maida Hill",300071,760,51.524309,-0.20123459999999227
"Humbolt Road, Fulham",300068,761,51.48321729,-0.211860644
"Storey's Gate, Westminster",200202,762,51.50070305,-0.129698963
"Mile End Park Leisure Centre, Mile End",300027,763,51.52059714,-0.032566533
"St. John's Road, Clapham Junction",200185,764,51.46239255,-0.16829214
"Ranelagh Gardens, Fulham",300064,765,51.46760141,-0.20682737
"Ram Street, Wandsworth",200079,766,51.45752945,-0.192165613
"Santos Road, Wandsworth",200177,767,51.45705988,-0.200806304
"Clapham Common North Side, Clapham Common",300065,768,51.46134382,-0.159322467
"Sandilands Road, Walham Green",300001,769,51.473611,-0.191803
"Gwendwr Road, West Kensington",300097,770,51.491026,-0.209121
"Rifle Place, Avondale",300007,771,51.509224,-0.216016
"Binfield Road, Stockwell",300015,772,51.47250956,-0.122831913
"Tallis Street, Temple",300096,773,51.511891,-0.107349
"Hurlingham Park, Parsons Green",300098,774,51.470131,-0.20464
"Little Brook Green, Brook Green",300101,775,51.496664,-0.223868
"Limburg Road, Clapham Junction",300100,777,51.4619230679,-0.165297856693
"Houndsditch, Aldgate",200072,779,51.514449,-0.077178979
"Imperial Wharf Station, Sands End",300070,780,51.474665,-0.18316517
"Victoria & Albert Museum, South Kensington",300032,781,51.495898,-0.173009
"Halford Road, West Kensington",300210,782,51.483911,-0.19760944
"Monier Road, Hackney Wick",300213,783,51.5403115,-0.021630359
"East Village, Queen Elizabeth Olympic Park",300200,784,51.546326,-0.00993526
"Lee Valley VeloPark, Queen Elizabeth Olympic Park",300029,786,51.549369,-0.015717614
"Timber Lodge, Queen Elizabeth Olympic Park",300227,787,51.546805,-0.01469126
"Copper Box Arena, Queen Elizabeth Olympic Park",300226,788,51.544909,-0.0205426
"Podium, Queen Elizabeth Olympic Park",300021,789,51.538718,-0.011889482
"Stratford Station, Stratford",300234,790,51.541793,-0.00481
"Blackfriars Road, Southwark",300214,792,51.505461,-0.10454093
"Cromer Street, Bloomsbury",300205,793,51.528279,-0.11955857
"Victoria Rise, Clapham Common",300204,794,51.461376,-0.14780467
"Euston Square Gardens, Euston",300203,795,51.527068,-0.13186102
"Coram Street, Bloomsbury",300201,796,51.524,-0.12640984
"Ossulston Street, Somers Town",300211,797,51.5293,-0.12827903
"Birkenhead Street, King's Cross",300212,798,51.5301998755,-0.122299440803
"Kings Gate House, Westminster",300202,799,51.4976984561,-0.137598896295
"Sopwith Way, Battersea Park",300248,800,51.4811219398,-0.149035374873
"Lavington Street, Bankside",300208,801,51.5052241745,-0.0980318118664
"Albert Square, Stockwell",300209,802,51.4765900593,-0.118256789081
"Southwark Street, Bankside",300238,803,51.5054099403,-0.0983410884509
"Good's Way, King's Cross",300243,804,51.5346677396,-0.125078652873
"The Metropolitan, Portobello",300244,805,51.520509,-0.20080483
"Handyside Street, King's Cross",300241,806,51.5372405623,-0.124807385707
"Bevington Road West, North Kensington",300236,807,51.5212,-0.208888173
"Gauden Road, Clapham",300207,808,51.464995,-0.13090885
"Lincoln's Inn Fields, Holborn",300240,809,51.5162778834,-0.118272991635
"Tate Modern, Bankside",300237,810,51.5067252868,-0.0988072461627
"Westferry Circus, Canary Wharf",300228,811,51.5057030357,-0.0277727426235
"Here East North, Queen Elizabeth Olympic Park",300217,812,51.5487311915,-0.0226065549321
"New Spring Gardens Walk, Vauxhall",300224,813,51.4878074485,-0.122759625866
"Clapham Road, Lingham Street, Stockwell",300245,814,51.4714330677,-0.123670735702
"Lambeth Palace Road, Waterloo",300231,815,51.5000891978,-0.116628700672
"Here East South, Queen Elizabeth Olympic Park",300219,816,51.5465327935,-0.0205975904647
"Riverlight South, Nine Elms",300232,817,51.4813354746,-0.138212295869
"Westminster Pier, Westminster",300249,818,51.501513,-0.12382322
"Belvedere Road 2, South Bank",300246,819,51.50621,-0.114842
"Victory Place, Walworth",300239,820,51.492807,-0.091938
"Battersea Power Station, Battersea Park",300221,821,51.4835074867,-0.147714557371
"Allington Street, Victoria",300242,826,51.496863,-0.1429434
"Cranmer Road, Stockwell",300247,827,51.479601,-0.11147178
"Normandy Road, Stockwell",300225,828,51.473874,-0.11258096
"Wynne Road, Stockwell",300230,829,51.469217,-0.11268674
"Sidney Road, Stockwell",300229,830,51.469202,-0.11902256
"St John's Crescent, Brixton",300215,831,51.466232,-0.11317995
"Ferndale Road, Brixton",200240,832,51.464019,-0.11578197
"Saltoun Road, Brixton",300206,833,51.460232,-0.11537509
"Gas Holders, Battersea Park",300216,834,51.477966,-0.14785703
"Farringdon Street, Holborn",300220,835,51.516785,-0.10494775
"York Way, Kings Cross",300235,836,51.541596,-0.12544145
"Fore Street, Guildhall",300222,838,51.518093,-0.0914017
"Sea Containers, South Bank",200144,839,51.508033,-0.10682363
"George Row, Bermondsey",002679,840,51.498585,-0.068981764
"Tower Wharf, Bermondsey",002667,841,51.500845,-0.074704305
"Temple Gardens, Temple",300250,842,51.510981,-0.10832249
"Canada Water Station, Rotherhithe",300252,844,51.498439,-0.049150215
"Bermondsey Station, Bermondsey",300253,845,51.497995,-0.063471392
"Burgess Park Albany Road, Walworth",300063,846,51.48224,-0.0942844
"South Bermondsey Station, Bermondsey",300062,847,51.488067,-0.057774596
"Crimscott Street, Bermondsey",300061,849,51.495598,-0.078893
"Brandon Street, Walworth",300060,850,51.489102,-0.0915489
"The Blue, Bermondsey",300059,851,51.492221,-0.06251309999998966
"Coomer Place, West Kensington",200081,852,51.4835707,-0.2020387000000028
"Strand, Strand",001100,857,51.512582,-0.11505729999998948
